{
  "name": "TC3_10_cities_hcmc",
  "description": "TC3 - Medium scale: 10-location TSP test case for common problem size evaluation",
  "category": "medium_scale",
  "num_cities": 10,
  "coordinates": [
    {
      "name": "Chợ Bến Thành",
      "lat": 10.772622,
      "lng": 106.698179,
      "type": "depot",
      "address": "Lê Lợi, Phường Bến Thành, Quận 1, TP.HCM"
    },
    {
      "name": "Dinh Độc Lập",
      "lat": 10.777229,
      "lng": 106.695900,
      "type": "customer",
      "address": "135 Nam Kỳ Khởi Nghĩa, Quận 1, TP.HCM"
    },
    {
      "name": "Nhà Thờ Đức Bà",
      "lat": 10.779738,
      "lng": 106.699092,
      "type": "customer",
      "address": "01 Công xã Paris, Quận 1, TP.HCM"
    },
    {
      "name": "Bưu Điện Trung Tâm",
      "lat": 10.780043,
      "lng": 106.700234,
      "type": "customer",
      "address": "02 Công xã Paris, Quận 1, TP.HCM"
    },
    {
      "name": "Chợ Lớn",
      "lat": 10.754049,
      "lng": 106.666123,
      "type": "customer",
      "address": "Hải Thượng Lãn Ông, Quận 5, TP.HCM"
    },
    {
      "name": "Chợ Bình Tây",
      "lat": 10.751513,
      "lng": 106.652145,
      "type": "customer",
      "address": "57A Thập Tự, Quận 6, TP.HCM"
    },
    {
      "name": "Landmark 81",
      "lat": 10.794533,
      "lng": 106.721800,
      "type": "customer",
      "address": "720A Điện Biên Phủ, Bình Thạnh, TP.HCM"
    },
    {
      "name": "Crescent Mall",
      "lat": 10.729999,
      "lng": 106.702774,
      "type": "customer",
      "address": "101 Tôn Dật Tiên, Quận 7, TP.HCM"
    },
    {
      "name": "Gigamall",
      "lat": 10.852173,
      "lng": 106.763473,
      "type": "customer",
      "address": "240-242 Phạm Văn Đồng, Thủ Đức, TP.HCM"
    },
    {
      "name": "Đầm Sen",
      "lat": 10.768283,
      "lng": 106.635552,
      "type": "customer",
      "address": "03 Hòa Bình, Quận 11, TP.HCM"
    }
  ],
  "expected_results": {
    "optimal_distance_km": 78.5,
    "optimal_route": [0, 1, 2, 3, 6, 8, 7, 4, 5, 9, 0],
    "route_description": "Depot → Central → East → South → West → Depot"
  },
  "test_purpose": "Medium-scale evaluation - Common real-world problem size",
  "complexity": "medium",
  "performance_metrics": {
    "expected_ga_time_seconds": 15,
    "expected_pso_time_seconds": 12,
    "search_space_size": "9! = 362,880 possible routes"
  },
  "notes": "Covers major HCMC landmarks across multiple districts - Representative of typical delivery scenarios"
}
