{
  "name": "TC4_15_cities_hcmc",
  "description": "TC4 - Medium scale: 15-location TSP test case for extended problem size evaluation",
  "category": "medium_scale",
  "num_cities": 15,
  "coordinates": [
    {
      "name": "Chợ Bến Thành",
      "lat": 10.772622,
      "lng": 106.698179,
      "type": "depot",
      "address": "Lê Lợi, Phường Bến Thành, Quận 1, TP.HCM"
    },
    {
      "name": "Dinh Độc Lập",
      "lat": 10.777229,
      "lng": 106.695900,
      "type": "customer",
      "address": "135 Nam Kỳ Khởi Nghĩa, Quận 1, TP.HCM"
    },
    {
      "name": "Nhà Thờ Đức Bà",
      "lat": 10.779738,
      "lng": 106.699092,
      "type": "customer",
      "address": "01 Công xã Paris, Quận 1, TP.HCM"
    },
    {
      "name": "Bưu Điện Trung Tâm",
      "lat": 10.780043,
      "lng": 106.700234,
      "type": "customer",
      "address": "02 Công xã Paris, Quận 1, TP.HCM"
    },
    {
      "name": "Chợ Lớn",
      "lat": 10.754049,
      "lng": 106.666123,
      "type": "customer",
      "address": "Hải Thượng Lãn Ông, Quận 5, TP.HCM"
    },
    {
      "name": "Chợ Bình Tây",
      "lat": 10.751513,
      "lng": 106.652145,
      "type": "customer",
      "address": "57A Thập Tự, Quận 6, TP.HCM"
    },
    {
      "name": "Landmark 81",
      "lat": 10.794533,
      "lng": 106.721800,
      "type": "customer",
      "address": "720A Điện Biên Phủ, Bình Thạnh, TP.HCM"
    },
    {
      "name": "Crescent Mall",
      "lat": 10.729999,
      "lng": 106.702774,
      "type": "customer",
      "address": "101 Tôn Dật Tiên, Quận 7, TP.HCM"
    },
    {
      "name": "Gigamall",
      "lat": 10.852173,
      "lng": 106.763473,
      "type": "customer",
      "address": "240-242 Phạm Văn Đồng, Thủ Đức, TP.HCM"
    },
    {
      "name": "Đầm Sen",
      "lat": 10.768283,
      "lng": 106.635552,
      "type": "customer",
      "address": "03 Hòa Bình, Quận 11, TP.HCM"
    },
    {
      "name": "Vincom Center",
      "lat": 10.782399,
      "lng": 106.700325,
      "type": "customer",
      "address": "72 Lê Thánh Tôn, Quận 1, TP.HCM"
    },
    {
      "name": "Sân Bay Tân Sơn Nhất",
      "lat": 10.818473,
      "lng": 106.658834,
      "type": "customer",
      "address": "Trường Sơn, Phường 2, Tân Bình, TP.HCM"
    },
    {
      "name": "Aeon Mall Tân Phú",
      "lat": 10.806192,
      "lng": 106.612739,
      "type": "customer",
      "address": "30 Bờ Bao Tân Thắng, Tân Phú, TP.HCM"
    },
    {
      "name": "Suối Tiên",
      "lat": 10.870345,
      "lng": 106.799527,
      "type": "customer",
      "address": "120 Tân Hòa Đông, Quận 9, TP.HCM"
    },
    {
      "name": "Vincom Mega Mall",
      "lat": 10.731373,
      "lng": 106.719282,
      "type": "customer",
      "address": "20 Đường số 19, Quận 2, TP.HCM"
    }
  ],
  "expected_results": {
    "optimal_distance_km": 125.8,
    "optimal_route": [0, 1, 2, 3, 10, 6, 8, 13, 14, 7, 4, 5, 9, 12, 11, 0],
    "route_description": "Comprehensive city tour covering all major districts"
  },
  "test_purpose": "Extended medium-scale evaluation - Upper bound of common problems",
  "complexity": "medium-high",
  "performance_metrics": {
    "expected_ga_time_seconds": 30,
    "expected_pso_time_seconds": 25,
    "search_space_size": "14! = 87,178,291,200 possible routes"
  },
  "notes": "Wide coverage across HCMC - Tests algorithm robustness with increased complexity"
}
